home_listing_id,name,availability,price,image[0].url,url,address.addr1,address.city,address.region,address.country,latitude,longitude,property_type,listing_type
7797514,LOTE EN VENTA SOBRE AV SOL DE MAYO,for_sale,280.00 USD,https://static.tokkobroker.com/w_pics/7797514_32853178386384029291292801756134358295611928260472911415455915210106068476069.jpg,https://www.biderbostgrupodesarrollista.com/Propiedades/7797514,Argentina | Cordoba | Cordoba Capital | San Francisco,,,Argentina | Cordoba | Cordoba Capital | San Francisco,-31.424533026027486,-64.212370000000007,land,for_sale_by_agent
7828865,Cochera en Centro,for_sale,8000.00 USD,https://static.tokkobroker.com/w_pics/7828865_108984499131929141238154007434491206613082656701424549853403204824989816638246.jpg,https://www.biderbostgrupodesarrollista.com/Propiedades/7828865,Argentina | Cordoba | Punilla | Villa Carlos Paz | Centro,,,Argentina | Cordoba | Punilla | Villa Carlos Paz | Centro,-31.4256559,-64.4980291,other,for_sale_by_agent
7797438,SE VENDE COCHERA CENTRICA EN VILLA CARLOS PAZ,for_sale,9000.00 USD,https://static.tokkobroker.com/w_pics/7797438_40106510988046801113075859778564089816296221144882368761064505544033021008073.jpg,https://www.biderbostgrupodesarrollista.com/Propiedades/7797438,Argentina | Cordoba | Punilla | Villa Carlos Paz,,,Argentina | Cordoba | Punilla | Villa Carlos Paz,-31.420059399999999,-64.494937899999996,other,for_sale_by_agent
7797493,LOTE EN VENTA EN EMPALME A TANTI - HOTEL CARMEL,for_sale,17000.00 USD,https://static.tokkobroker.com/w_pics/7797493_15828974745259325262937629511449861866938724357482445867614248512204415965036.jpg,https://www.biderbostgrupodesarrollista.com/Propiedades/7797493,Argentina | Cordoba | Punilla | Villa Carlos Paz,,,Argentina | Cordoba | Punilla | Villa Carlos Paz,-31.353338080815682,-64.519790000000000,land,for_sale_by_agent
7797509,SE VENDE EXCELENTE LOTE EN PARQUE SIQUIMAN A METROS DEL LAGO,for_sale,22000.00 USD,https://static.tokkobroker.com/w_pics/7797509_46039832253917690080829438574507556547558675425266261628628032280522320361860.jpg,https://www.biderbostgrupodesarrollista.com/Propiedades/7797509,Argentina | Cordoba | Punilla | Villa Parque Siquiman,,,Argentina | Cordoba | Punilla | Villa Parque Siquiman,-31.355508979424087,-64.478447000000002,land,for_sale_by_agent
7797500,SE VENDEN LOTES LOS PLATANOS VILLA CARLOS PAZ,for_sale,22000.00 USD,https://static.tokkobroker.com/w_pics/7797500_43259418353706651787710736337246415925271791557703987779946853449619129791851.jpg,https://www.biderbostgrupodesarrollista.com/Propiedades/7797500,Argentina | Cordoba | Punilla | Villa Carlos Paz,,,Argentina | Cordoba | Punilla | Villa Carlos Paz,-31.417017500000000,-64.520717599999997,land,for_sale_by_agent
7797497,LOTE EN VENTA B° MIRADOR DEL LAGO BIALET MASSE,for_sale,25000.00 USD,https://static.tokkobroker.com/w_pics/7797497_67979199727166321936614799071182039933825959469335377781434918780708768885674.jpg,https://www.biderbostgrupodesarrollista.com/Propiedades/7797497,Argentina | Cordoba | Cordoba Capital | Bialet Masse,,,Argentina | Cordoba | Cordoba Capital | Bialet Masse,-31.325493999999999,-64.477512399999994,land,for_sale_by_agent
7797511,LOTE EN VENTA EN ZONA RESIDENCIAL - CARLOS PAZ SIERRAS,for_sale,25000.00 USD,https://static.tokkobroker.com/w_pics/7797511_57522334172325850394837728813956033887111098803687279584756096926356237952658.jpg,https://www.biderbostgrupodesarrollista.com/Propiedades/7797511,Argentina | Cordoba | Punilla | Villa Carlos Paz,,,Argentina | Cordoba | Punilla | Villa Carlos Paz,-31.420782800000001,-64.499214100000003,land,for_sale_by_agent
7797515,SE VENDE TERRENO EN VILLA DEL LAGO VILLA CARLOS PAZ,for_sale,25000.00 USD,https://static.tokkobroker.com/w_pics/7797515_111538171061575783870814073644423280893557184405473025873099362336768534459774.jpg,https://www.biderbostgrupodesarrollista.com/Propiedades/7797515,Argentina | Cordoba | Punilla | Villa Carlos Paz | Villa del Lago,,,Argentina | Cordoba | Punilla | Villa Carlos Paz | Villa del Lago,-31.392391100000001,-64.509940299999996,land,for_sale_by_agent
7797513,SE VENDEN LOTES EN VILLA INDEPENDENCIA VILLA CARLOS PAZ,for_sale,30000.00 USD,https://static.tokkobroker.com/w_pics/7797513_9329733424171044699001724153687754201115778348507115858927819243978591695905.jpg,https://www.biderbostgrupodesarrollista.com/Propiedades/7797513,Argentina | Cordoba | Punilla | Villa Carlos Paz,,,Argentina | Cordoba | Punilla | Villa Carlos Paz,-31.461254575565693,-64.508038999999996,land,for_sale_by_agent
7797505,VENTA DE TERRENO EN COUNTRY ALTOS DE CARLOS PAZ,for_sale,35000.00 USD,https://static.tokkobroker.com/w_pics/7797505_71124461938491766169245946466433407264330723431658869093689032247853159944058.jpg,https://www.biderbostgrupodesarrollista.com/Propiedades/7797505,Argentina | Cordoba | Punilla | Villa Carlos Paz | Solares de las Ensenadas,,,Argentina | Cordoba | Punilla | Villa Carlos Paz | Solares de las Ensenadas,-31.437850099999998,-64.516789099999996,land,for_sale_by_agent
7797507,SE VENDEN TERRENOS EN CARLOS PAZ GOLF COUNTRY,for_sale,37000.00 USD,https://static.tokkobroker.com/w_pics/7797507_43203336049318089190087582561668042593045207933943351501510991390804841518408.jpg,https://www.biderbostgrupodesarrollista.com/Propiedades/7797507,Argentina | Cordoba | Cordoba Capital | San Antonio,,,Argentina | Cordoba | Cordoba Capital | San Antonio,-31.492912700000001,-64.529064399999995,land,for_sale_by_agent
7797399,EN VENTA TERRENO EN SAN ANTONIO CARLOS PAZ,for_sale,38000.00 USD,https://static.tokkobroker.com/w_pics/7797399_84557968723751978376289346599174741178484845364413739071344238711199740501516.jpg,https://www.biderbostgrupodesarrollista.com/Propiedades/7797399,Argentina | Cordoba | Cordoba Capital | San Antonio,,,Argentina | Cordoba | Cordoba Capital | San Antonio,-31.466189100000001,-64.528117300000005,land,for_sale_by_agent
7797510,SE VENDE LOTE EN BARRIO VILLA DEL LAGO,for_sale,40000.00 USD,https://static.tokkobroker.com/w_pics/7797510_82031989633755000938984577041796278710799379819974905173562431246840709680593.jpg,https://www.biderbostgrupodesarrollista.com/Propiedades/7797510,Argentina | Cordoba | Punilla | Villa Carlos Paz | Villa del Lago,,,Argentina | Cordoba | Punilla | Villa Carlos Paz | Villa del Lago,-31.399948999999999,-64.507835200000002,land,for_sale_by_agent
7797491,"LOTE EN VENTA EN B° VILLA DEL LAGO, CORDOBA.",for_sale,40000.00 USD,https://static.tokkobroker.com/w_pics/7797491_55762229711241907198839577829865638813905939695401122782027842499764464443759.jpg,https://www.biderbostgrupodesarrollista.com/Propiedades/7797491,Argentina | Cordoba | Punilla | Villa Carlos Paz,,,Argentina | Cordoba | Punilla | Villa Carlos Paz,-31.395837000000000,-64.506947999999994,land,for_sale_by_agent
7797498,SE VENDE LOTE CON EXCELENTES VISTAS,for_sale,45000.00 USD,https://static.tokkobroker.com/w_pics/7797498_92372281070843997902511477381848329075351047693813155671234080943676647491377.jpg,https://www.biderbostgrupodesarrollista.com/Propiedades/7797498,Argentina | Cordoba | Punilla | Villa Parque Siquiman,,,Argentina | Cordoba | Punilla | Villa Parque Siquiman,-31.364583720404109,-64.481182300000000,land,for_sale_by_agent
7797496,"LOTE EN VENTA SOBRE LA RUTA DE SAN ROQUE, CORDOBA.",for_sale,45000.00 USD,https://static.tokkobroker.com/w_pics/7797496_6886680289020695908465482345232928884635408871926332796160284988082673130889.jpg,https://www.biderbostgrupodesarrollista.com/Propiedades/7797496,Argentina | Cordoba | Punilla | Villa Carlos Paz,,,Argentina | Cordoba | Punilla | Villa Carlos Paz,-31.357826899999999,-64.386274799999995,land,for_sale_by_agent
7797501,SE VENDEN TERRENOS EN VILLA CARLOS PAZ,for_sale,50000.00 USD,https://static.tokkobroker.com/w_pics/7797501_102894027095688364568902324157537417095729348136450207417286684386898471427328.jpg,https://www.biderbostgrupodesarrollista.com/Propiedades/7797501,Argentina | Cordoba | Punilla | Villa Carlos Paz | La Quinta,,,Argentina | Cordoba | Punilla | Villa Carlos Paz | La Quinta,-31.425763166001281,-64.515955000000005,land,for_sale_by_agent
7797444,EN VENTA OFICINA EN VILLA CARLOS PAZ,for_sale,55000.00 USD,https://static.tokkobroker.com/w_pics/7797444_2827881082332722965829665710154311464393282314771804918274466853556220649359.jpg,https://www.biderbostgrupodesarrollista.com/Propiedades/7797444,Argentina | Cordoba | Punilla | Villa Carlos Paz,,,Argentina | Cordoba | Punilla | Villa Carlos Paz,-31.411155579549966,-64.483175000000002,other,for_sale_by_agent
7797421,EN VENTA DEPARTAMENTO EN VILLA CARLOS PAZ,for_sale,55000.00 USD,https://static.tokkobroker.com/w_pics/7797421_97806003487484263565853924933277544986665133936400621039126018379932752654217.jpg,https://www.biderbostgrupodesarrollista.com/Propiedades/7797421,Argentina | Cordoba | Punilla | Villa Carlos Paz,,,Argentina | Cordoba | Punilla | Villa Carlos Paz,-31.434065499999999,-64.497266699999997,apartment,for_sale_by_agent
7797396,EN VENTA LOTE VILLA DEL LAGO VILLA CARLOS PAZ,for_sale,58000.00 USD,https://static.tokkobroker.com/w_pics/7797396_88426638427762686262915613963564355174886021192059600104397076329820306791123.jpg,https://www.biderbostgrupodesarrollista.com/Propiedades/7797396,Argentina | Cordoba | Punilla | Villa Carlos Paz | Villa del Lago,,,Argentina | Cordoba | Punilla | Villa Carlos Paz | Villa del Lago,-31.392335874760831,-64.497080999999994,land,for_sale_by_agent
7797489,SE VENDEN TERRENOS EN CARLOS PAZ GOLF COUNTRY,for_sale,60000.00 USD,https://static.tokkobroker.com/w_pics/7797489_68287134493095525079014497513037641626072223418815058131309897216956905795940.jpg,https://www.biderbostgrupodesarrollista.com/Propiedades/7797489,Argentina | Cordoba | Cordoba Capital | San Antonio,,,Argentina | Cordoba | Cordoba Capital | San Antonio,-31.492912700000001,-64.529064399999995,land,for_sale_by_agent
7797506,VENTA TERRENO EN VILLA DEL LAGO VILLA CARLOS PAZ,for_sale,60000.00 USD,https://static.tokkobroker.com/w_pics/7797506_28140065564795255542797645988396151767166026573030147151469501322517491805254.jpg,https://www.biderbostgrupodesarrollista.com/Propiedades/7797506,Argentina | Cordoba | Punilla | Villa Carlos Paz | Villa del Lago,,,Argentina | Cordoba | Punilla | Villa Carlos Paz | Villa del Lago,-31.391104877248427,-64.510295999999996,land,for_sale_by_agent
7797504,SE VENDE LOTE EN COSTA AZUL VILLA CARLOS PAZ,for_sale,60000.00 USD,https://static.tokkobroker.com/w_pics/7797504_98168703579591791016835191820938128002729709299879372742089002849821366467658.jpg,https://www.biderbostgrupodesarrollista.com/Propiedades/7797504,Argentina | Cordoba | Punilla | Villa Carlos Paz,,,Argentina | Cordoba | Punilla | Villa Carlos Paz,-31.391461927350764,-64.458124999999995,land,for_sale_by_agent
7797495,VENTA TERRENO EN TANTI VILLA CARLOS PAZ,for_sale,60000.00 USD,https://static.tokkobroker.com/w_pics/7797495_80187649707341851366941850826170225740621048176271294320606592346097793800794.jpg,https://www.biderbostgrupodesarrollista.com/Propiedades/7797495,Argentina | Cordoba | Punilla | Villa Carlos Paz,,,Argentina | Cordoba | Punilla | Villa Carlos Paz,-31.362161199999999,-64.544134499999998,land,for_sale_by_agent
7797499,SE VENDE LOTE CON EXCELENTES VISTAS,for_sale,62000.00 USD,https://static.tokkobroker.com/w_pics/7797499_33615512737965277087290710341832948246300493355546031187139050541543646788315.jpg,https://www.biderbostgrupodesarrollista.com/Propiedades/7797499,Argentina | Cordoba | Punilla | Villa Parque Siquiman,,,Argentina | Cordoba | Punilla | Villa Parque Siquiman,-31.364794199999998,-64.483523699999906,land,for_sale_by_agent
7797411,SE VENDE DEPARTAMENTO EN VILLA SANTA CRUZ DEL LAGO CON VISTA,for_sale,63000.00 USD,https://static.tokkobroker.com/w_pics/7797411_98024865445500726814650640951753087540068449690148041393866794239117661867138.jpg,https://www.biderbostgrupodesarrollista.com/Propiedades/7797411,Argentina | Cordoba | Punilla | Villa Santa Cruz Del Lago,,,Argentina | Cordoba | Punilla | Villa Santa Cruz Del Lago,-31.366545399999999,-64.523159800000001,apartment,for_sale_by_agent
7797391,SE VENDE TERRENO EN BECCIU VILLA CARLOS PAZ,for_sale,68000.00 USD,https://static.tokkobroker.com/w_pics/7797391_107903198867224787331681675167273959458839375912727539221196071258846110301781.jpg,https://www.biderbostgrupodesarrollista.com/Propiedades/7797391,Argentina | Cordoba | Punilla | Villa Carlos Paz,,,Argentina | Cordoba | Punilla | Villa Carlos Paz,-31.412610922763498,-64.506230759999994,land,for_sale_by_agent
7797512,SE VENDE EXCELENTE LOTE EN COSTA AZUL VILLA CARLOS PAZ,for_sale,69000.00 USD,https://static.tokkobroker.com/w_pics/7797512_70453144843143145903194383840398100680082684996408647479897764393368698988328.jpg,https://www.biderbostgrupodesarrollista.com/Propiedades/7797512,Argentina | Cordoba | Punilla | Villa Carlos Paz,,,Argentina | Cordoba | Punilla | Villa Carlos Paz,-31.390678965650437,-64.457991000000006,land,for_sale_by_agent
7797508,OPORTUNIDAD DE TERRENO EN COUNTRY CARLOS PAZ GOLF,for_sale,69200.00 USD,https://static.tokkobroker.com/w_pics/7797508_96169980305335088244383298357859036519822272536358510331264907532881323433287.jpg,https://www.biderbostgrupodesarrollista.com/Propiedades/7797508,Argentina | Cordoba | Punilla | Villa Carlos Paz,,,Argentina | Cordoba | Punilla | Villa Carlos Paz,-31.483571999999998,-64.524149100000002,land,for_sale_by_agent
7797392,EN VENTA DEPARTAMENTO CENTRICO VILLA CARLOS PAZ,for_sale,75000.00 USD,https://static.tokkobroker.com/w_pics/7797392_43895599963548885371787640421412645541767735106967893298898043170360258697988.jpg,https://www.biderbostgrupodesarrollista.com/Propiedades/7797392,Argentina | Cordoba | Punilla | Villa Carlos Paz,,,Argentina | Cordoba | Punilla | Villa Carlos Paz,-31.424036000000000,-64.499189799999996,apartment,for_sale_by_agent
7873427,Departamento en Centro,for_sale,78900.00 USD,https://static.tokkobroker.com/w_pics/7873427_19890331084750785405342716340903889597184930113288372496344953463782209105919.jpg,https://www.biderbostgrupodesarrollista.com/Propiedades/7873427,Argentina | Cordoba | Punilla | Villa Carlos Paz | Centro,,,Argentina | Cordoba | Punilla | Villa Carlos Paz | Centro,-31.4270413,-64.4969416,apartment,for_sale_by_agent
7797494,IMPORTANTE LOTE FRENTE A LOS COUNTRIES ESTACION DEL CARMEN Y LAS CAÑITAS,for_sale,80000.00 USD,https://static.tokkobroker.com/w_pics/7797494_16912499848519972973814582738008170434658021157967492013295705676142894906972.jpg,https://www.biderbostgrupodesarrollista.com/Propiedades/7797494,Argentina | Cordoba | Punilla | Villa Carlos Paz,,,Argentina | Cordoba | Punilla | Villa Carlos Paz,-31.489972466283173,-64.459325000000006,land,for_sale_by_agent
7797482,EN VENTA TERRENO HECTAREA ICHO CRUZ VILLA CARLOS PAZ,for_sale,80000.00 USD,https://static.tokkobroker.com/w_pics/7797482_112755379656713454305945711209624211410747641617245845381725620221637432889376.jpg,https://www.biderbostgrupodesarrollista.com/Propiedades/7797482,Argentina | Cordoba | Punilla | Villa Icho Cruz,,,Argentina | Cordoba | Punilla | Villa Icho Cruz,-31.486581300000000,-64.563869400000001,land,for_sale_by_agent
7797369,EN VENTA CASA EN VILLA DEL LAGO VILLA CARLOS PAZ,for_sale,82000.00 USD,https://static.tokkobroker.com/w_pics/7797369_98010596593029244685869047145532056472241070830842997538093715363715413413352.jpg,https://www.biderbostgrupodesarrollista.com/Propiedades/7797369,Argentina | Cordoba | Punilla | Villa Carlos Paz | Villa del Lago,,,Argentina | Cordoba | Punilla | Villa Carlos Paz | Villa del Lago,-31.393956700000000,-64.497870300000002,house,for_sale_by_agent
7797389,EN VENTA DEPARTAMENTO CENTRICO EN VILLA CARLOS PAZ,for_sale,82000.00 USD,https://static.tokkobroker.com/w_pics/7797389_44349328684278465173841410767440555387107046773897311160545915911333853652663.jpg,https://www.biderbostgrupodesarrollista.com/Propiedades/7797389,Argentina | Cordoba | Punilla | Villa Carlos Paz,,,Argentina | Cordoba | Punilla | Villa Carlos Paz,-31.426680600000000,-64.497496799999993,apartment,for_sale_by_agent
7797397,IMPORTANTE OPORTUNIDAD DE PROPIEDAD EN VENTA EN TANTI,for_sale,85000.00 USD,https://static.tokkobroker.com/w_pics/7797397_36510740203380591779629818088051032750517640130614740729804011928348118988915.jpg,https://www.biderbostgrupodesarrollista.com/Propiedades/7797397,Argentina | Cordoba | Punilla | Villa Carlos Paz,,,Argentina | Cordoba | Punilla | Villa Carlos Paz,-31.355972799999999,-64.587340099999906,land,for_sale_by_agent
7797455,SE VENDE CASA EN TANTI CERCANO A VILLA CARLOS PAZ,for_sale,85000.00 USD,https://static.tokkobroker.com/w_pics/7797455_48059191910258726076456835259268509532067446554480245224969918160990105409257.jpg,https://www.biderbostgrupodesarrollista.com/Propiedades/7797455,Argentina | Cordoba | Punilla | Villa Carlos Paz,,,Argentina | Cordoba | Punilla | Villa Carlos Paz,-31.350576499999998,-64.615550900000002,house,for_sale_by_agent
7831132,CASA EN VENTA EN SANTA CRUZ DEL LAGO CON PILETA,for_sale,85000.00 USD,https://static.tokkobroker.com/w_pics/7831132_111084194113262157156507068195599014104012956429481442632392516757755587539327.jpg,https://www.biderbostgrupodesarrollista.com/Propiedades/7831132,Argentina | Cordoba | Punilla | Villa Santa Cruz Del Lago,,,Argentina | Cordoba | Punilla | Villa Santa Cruz Del Lago,-31.3698639,-64.5190108,house,for_sale_by_agent
7797357,EN VENTA DEPARTAMENTO EN VILLA CARLOS PAZ,for_sale,90000.00 USD,https://static.tokkobroker.com/w_pics/7797357_49654217185531337752481608011286846608766977925903490635229812148909201409091.jpg,https://www.biderbostgrupodesarrollista.com/Propiedades/7797357,Argentina | Cordoba | Punilla | Villa Carlos Paz,,,Argentina | Cordoba | Punilla | Villa Carlos Paz,-31.429577200000000,-64.496692299999907,apartment,for_sale_by_agent
7797415,OPORTUNIDAD ! DUPLEX CON COCHERA Y GAS NATURAL,for_sale,90000.00 USD,https://static.tokkobroker.com/w_pics/7797415_110176374268553857719840718867107265193740609345054889285519373696536038336600.jpg,https://www.biderbostgrupodesarrollista.com/Propiedades/7797415,Argentina | Cordoba | Punilla | Villa Carlos Paz,,,Argentina | Cordoba | Punilla | Villa Carlos Paz,-31.430294700000001,-64.497260400000001,apartment,for_sale_by_agent
7797439,DEPARTAMENTO EN VENTA  A DOS CUADRAS DEL CENTRO DE VILLA CARLOS PAZ,for_sale,90000.00 USD,https://static.tokkobroker.com/w_pics/7797439_16032927893952579152048070385454412288421445011797953538111712979409401475551.jpg,https://www.biderbostgrupodesarrollista.com/Propiedades/7797439,Argentina | Cordoba | Punilla | Villa Carlos Paz,,,Argentina | Cordoba | Punilla | Villa Carlos Paz,-31.424044802098070,-64.493336600000006,apartment,for_sale_by_agent
7797468,SE VENDE CASA EN VILLA CARLOS PAZ,for_sale,93000.00 USD,https://static.tokkobroker.com/w_pics/7797468_60307750902831679000467536035352463959496713252342510995951240466752675059186.jpg,https://www.biderbostgrupodesarrollista.com/Propiedades/7797468,Argentina | Cordoba | Punilla | Villa Carlos Paz | La Quinta,,,Argentina | Cordoba | Punilla | Villa Carlos Paz | La Quinta,-31.417509800000001,-64.512734999999906,house,for_sale_by_agent
7797363,SE VENDE CASA EN ESTANCIA VIEJA CARLOS PAZ,for_sale,95000.00 USD,https://static.tokkobroker.com/w_pics/7797363_85220209499703890083969884941807843147459100747943333252262664657952209623416.jpg,https://www.biderbostgrupodesarrollista.com/Propiedades/7797363,Argentina | Cordoba | Punilla | Estancia Vieja,,,Argentina | Cordoba | Punilla | Estancia Vieja,-31.385344973296454,-64.529747999999997,house,for_sale_by_agent
7797433,SE VENDE DEPARTAMENTO COSTANERA VILLA CARLOS PAZ,for_sale,95000.00 USD,https://static.tokkobroker.com/w_pics/7797433_36639448385043511656300074596941850910120728630691733843300085763400549717517.jpg,https://www.biderbostgrupodesarrollista.com/Propiedades/7797433,Argentina | Cordoba | Punilla | Villa Carlos Paz,,,Argentina | Cordoba | Punilla | Villa Carlos Paz,-31.401440194373392,-64.481476000000000,apartment,for_sale_by_agent
7797394,SE VENDE TERRENO EN BECCIU VILLA CARLOS PAZ,for_sale,95000.00 USD,https://static.tokkobroker.com/w_pics/7797394_69440269712965544065557477965550499742601643082512747732473157567841821013472.jpg,https://www.biderbostgrupodesarrollista.com/Propiedades/7797394,Argentina | Cordoba | Punilla | Villa Carlos Paz,,,Argentina | Cordoba | Punilla | Villa Carlos Paz,-31.411674800000000,-64.508368099999998,land,for_sale_by_agent
7797416,EN VENTA DEPARTAMENTO CENTRICO EN VILLA CARLOS PAZ,for_sale,95000.00 USD,https://static.tokkobroker.com/w_pics/7797416_28662270633391490312357780401212350789024742185275799011712596778019596264835.jpg,https://www.biderbostgrupodesarrollista.com/Propiedades/7797416,Argentina | Cordoba | Punilla | Villa Carlos Paz,,,Argentina | Cordoba | Punilla | Villa Carlos Paz,-31.422303400000000,-64.498100999999905,apartment,for_sale_by_agent
7797502,SE VENDE TERRENO EN JOSE MUÑOZ VILLA CARLOS PAZ,for_sale,97000.00 USD,https://static.tokkobroker.com/w_pics/7797502_73747525988142092573609277893811803485121982723551490506701675920734108814463.jpg,https://www.biderbostgrupodesarrollista.com/Propiedades/7797502,Argentina | Cordoba | Punilla | Villa Carlos Paz | José Muñoz,,,Argentina | Cordoba | Punilla | Villa Carlos Paz | José Muñoz,-31.420930499999990,-64.485433999999997,land,for_sale_by_agent
7797459,SE VENDE CASA EN VILLA DEL LAGO CON VISTAS A LAS SIERRAS,for_sale,100000.00 USD,https://static.tokkobroker.com/w_pics/7797459_46431567026293165043990228340722367149961078947410611828570946663949534591477.jpg,https://www.biderbostgrupodesarrollista.com/Propiedades/7797459,Argentina | Cordoba | Punilla | Villa Carlos Paz | Villa del Lago,,,Argentina | Cordoba | Punilla | Villa Carlos Paz | Villa del Lago,-31.392948072676524,-64.506338999999996,house,for_sale_by_agent
7797486,SE VENDE OPORTUNIDAD DE LOCAL-VIVIENDA,for_sale,100000.00 USD,https://static.tokkobroker.com/w_pics/7797486_52673135534196209094364130508795339226469360679864742498362184068129460085659.jpg,https://www.biderbostgrupodesarrollista.com/Propiedades/7797486,Argentina | Cordoba | Punilla | Villa Carlos Paz | Miguel Muñoz,,,Argentina | Cordoba | Punilla | Villa Carlos Paz | Miguel Muñoz,-31.441822299999998,-64.501132200000000,house,for_sale_by_agent
7797484,SE VENDE OPORTUNIDAD DE LOCAL-VIVIENDA,for_sale,100000.00 USD,https://static.tokkobroker.com/w_pics/7797484_22266520484558382266686220124433443053213384554257241364175214589461482290651.jpg,https://www.biderbostgrupodesarrollista.com/Propiedades/7797484,Argentina | Cordoba | Punilla | Villa Carlos Paz | Miguel Muñoz,,,Argentina | Cordoba | Punilla | Villa Carlos Paz | Miguel Muñoz,-31.441822299999998,-64.501132200000000,other,for_sale_by_agent
7797422,DEPARTAMENTO EN VENTA CENTRICO EN PASEO QUATTRO CARLOS PAZ,for_sale,100000.00 USD,https://static.tokkobroker.com/w_pics/7797422_77087151962083981332371545172388293375603606029566800524729286059984621347094.jpg,https://www.biderbostgrupodesarrollista.com/Propiedades/7797422,Argentina | Cordoba | Punilla | Villa Carlos Paz,,,Argentina | Cordoba | Punilla | Villa Carlos Paz,-31.422278699999999,-64.501518300000000,apartment,for_sale_by_agent
7797426,OPORTUNIDAD DEPARTAMENTO UN DORMITORIO EN EDIFICIO VOW,for_sale,100000.00 USD,https://static.tokkobroker.com/w_pics/7797426_31544306390071557350542697162318081435344557528992758758420541970784482244371.jpg,https://www.biderbostgrupodesarrollista.com/Propiedades/7797426,Argentina | Cordoba | Punilla | Villa Carlos Paz,,,Argentina | Cordoba | Punilla | Villa Carlos Paz,-31.420400999999998,-64.491107399999989,apartment,for_sale_by_agent
7797449,SE VENDE CASA EN B° LA QUINTA CON GRAN TERRENO Y VEGETACION,for_sale,100000.00 USD,https://static.tokkobroker.com/w_pics/7797449_101113638982444039707507550078347107856840527953573598730366169046412942200725.jpg,https://www.biderbostgrupodesarrollista.com/Propiedades/7797449,Argentina | Cordoba | Punilla | Villa Carlos Paz | La Quinta,,,Argentina | Cordoba | Punilla | Villa Carlos Paz | La Quinta,-31.429049500000001,-64.512814099999999,house,for_sale_by_agent
7797469,SE VENDE CASA EN B° LA QUINTA A METROS DE BALNEARIO LA HOYA,for_sale,105000.00 USD,https://static.tokkobroker.com/w_pics/7797469_10272772922941583994283390255551028957500558561029243569192261838348262101005.jpg,https://www.biderbostgrupodesarrollista.com/Propiedades/7797469,Argentina | Cordoba | Punilla | Villa Carlos Paz | La Quinta,,,Argentina | Cordoba | Punilla | Villa Carlos Paz | La Quinta,-31.424360700000001,-64.513115099999993,house,for_sale_by_agent
7797503,SE VENDE TERRENO EN BECCIU VILLA CARLOS PAZ,for_sale,105000.00 USD,https://static.tokkobroker.com/w_pics/7797503_40623814106081071884353718176604556381347950965439196852240277514592077338077.jpg,https://www.biderbostgrupodesarrollista.com/Propiedades/7797503,Argentina | Cordoba | Punilla | Villa Carlos Paz,,,Argentina | Cordoba | Punilla | Villa Carlos Paz,-31.412253299999999,-64.508754199999998,land,for_sale_by_agent
7797414,EN VENTA DEPARTAMENTO EN VILLA CARLOS PAZ,for_sale,105000.00 USD,https://static.tokkobroker.com/w_pics/7797414_92179251470767271241882429093447583403641815565956741965997949829707942143772.jpg,https://www.biderbostgrupodesarrollista.com/Propiedades/7797414,Argentina | Cordoba | Punilla | Villa Carlos Paz | Centro,,,Argentina | Cordoba | Punilla | Villa Carlos Paz | Centro,-31.427849800000000,-64.499491699999992,apartment,for_sale_by_agent
7851704,DEPARTAMENTO EN VENTA EN EL CENTRO DE CARLOS PAZ,for_sale,110000.00 USD,https://static.tokkobroker.com/w_pics/7851704_15643099706609766501207182005409188570438304626104155689402384773845052565295.jpg,https://www.biderbostgrupodesarrollista.com/Propiedades/7851704,Argentina | Cordoba | Punilla | Villa Carlos Paz | Centro,,,Argentina | Cordoba | Punilla | Villa Carlos Paz | Centro,-31.4202065,-64.4945315,apartment,for_sale_by_agent
7797349,SE VENDE CASA EN SOLARES DE LAS ENSENADAS VILLA CARLOS PAZ,for_sale,115000.00 USD,https://static.tokkobroker.com/w_pics/7797349_26005365425678163942259035936666933438050590231581332707380180440329993517843.jpg,https://www.biderbostgrupodesarrollista.com/Propiedades/7797349,Argentina | Cordoba | Punilla | Villa Carlos Paz,,,Argentina | Cordoba | Punilla | Villa Carlos Paz,-31.450737700000001,-64.518640000000004,house,for_sale_by_agent
7797474,SE VENDE CASA EN PLAYAS DE ORO VILLA CARLOS PAZ,for_sale,115000.00 USD,https://static.tokkobroker.com/w_pics/7797474_103094701407335958564853959145587702034784417302863856896076891995866136556571.jpg,https://www.biderbostgrupodesarrollista.com/Propiedades/7797474,Argentina | Cordoba | Punilla | Villa Carlos Paz,,,Argentina | Cordoba | Punilla | Villa Carlos Paz,-31.453533905575142,-64.518050999999999,house,for_sale_by_agent
7797413,SE VENDE CASA EN JOSE MUÑOZ VILLA CARLOS PAZ,for_sale,120000.00 USD,https://static.tokkobroker.com/w_pics/7797413_48310197827475132316175678767754445221293142051414284924616268324476328268649.jpg,https://www.biderbostgrupodesarrollista.com/Propiedades/7797413,Argentina | Cordoba | Punilla | Villa Carlos Paz | José Muñoz,,,Argentina | Cordoba | Punilla | Villa Carlos Paz | José Muñoz,-31.416222300000001,-64.482995399999992,house,for_sale_by_agent
7797437,SE VENDE CASA EN VILLA DEL LAGO CON DEPARTAMENTO,for_sale,120000.00 USD,https://static.tokkobroker.com/w_pics/7797437_72574088379071503145730708874571687833200223991939693309900660107525610885709.jpg,https://www.biderbostgrupodesarrollista.com/Propiedades/7797437,Argentina | Cordoba | Punilla | Villa Carlos Paz | Villa del Lago,,,Argentina | Cordoba | Punilla | Villa Carlos Paz | Villa del Lago,-31.393386218550602,-64.507043999999993,house,for_sale_by_agent
7797443,SE VENDE CASA EN BARRIO CERRADO EL DORADO,for_sale,120000.00 USD,https://static.tokkobroker.com/w_pics/7797443_20249714391648278709052323593192291284520039206072390846615768486113342366058.jpg,https://www.biderbostgrupodesarrollista.com/Propiedades/7797443,Argentina | Cordoba | Cordoba Capital | San Antonio,,,Argentina | Cordoba | Cordoba Capital | San Antonio,-31.472654674208953,-64.518955000000005,house,for_sale_by_agent
7797348,EN VENTA CASA EN VILLA CARLOS PAZ CERCANA AL CENTRO,for_sale,120000.00 USD,https://static.tokkobroker.com/w_pics/7797348_11102792307575232556499598387817334495696470726825148707994980446598502802899.jpg,https://www.biderbostgrupodesarrollista.com/Propiedades/7797348,Argentina | Cordoba | Punilla | Villa Carlos Paz,,,Argentina | Cordoba | Punilla | Villa Carlos Paz,-31.428310799999991,-64.498389000000003,house,for_sale_by_agent
7797487,SE VENDE LOTE EXCLUSIVO EN CABALANGO,for_sale,120000.00 USD,https://static.tokkobroker.com/w_pics/7797487_82145229314477579699663715623549735297945219379164491171095073645159711521578.jpg,https://www.biderbostgrupodesarrollista.com/Propiedades/7797487,Argentina | Cordoba | Punilla | Malagueño,,,Argentina | Cordoba | Punilla | Malagueño,-31.396026240281319,-64.551961399999996,land,for_sale_by_agent
7854593,DEPARTAMENTO EN VENTA VENETO VILLAGE RESORT,for_sale,120000.00 USD,https://static.tokkobroker.com/w_pics/7854593_99047668421404442615201455737735957374448215256375406025132562371635700010571.jpg,https://www.biderbostgrupodesarrollista.com/Propiedades/7854593,Argentina | Cordoba | Punilla | Villa Parque Siquiman,,,Argentina | Cordoba | Punilla | Villa Parque Siquiman,-31.3445356,-64.4751632,apartment,for_sale_by_agent
7797380,EN VENTA DEPARTAMENTO CENTRICO VILLA CARLOS PAZ,for_sale,125000.00 USD,https://static.tokkobroker.com/w_pics/7797380_113189494195700453824290466344982436583987938559580798833243967248506974463678.jpg,https://www.biderbostgrupodesarrollista.com/Propiedades/7797380,Argentina | Cordoba | Punilla | Villa Carlos Paz,,,Argentina | Cordoba | Punilla | Villa Carlos Paz,-31.423112599999999,-64.498462199999906,apartment,for_sale_by_agent
7797429,DEPARTAMENTO EN VENTA EN EL CENTRO DE CARLOS PAZ - PILETA - SUM - GYM,for_sale,128000.00 USD,https://static.tokkobroker.com/w_pics/7797429_23266484143265962486304639653479519125311704506568405195118304451190866767098.jpg,https://www.biderbostgrupodesarrollista.com/Propiedades/7797429,Argentina | Cordoba | Punilla | Villa Carlos Paz,,,Argentina | Cordoba | Punilla | Villa Carlos Paz,-31.424543899999999,-64.498650199999900,apartment,for_sale_by_agent
7797466,SE VENDE CASA EN LAGO AZUL VILLA CARLOS PAZ EXCELENTES VISTAS,for_sale,130000.00 USD,https://static.tokkobroker.com/w_pics/7797466_74526421836915646826922551763031369762086793439823788120015813675862149172631.jpg,https://www.biderbostgrupodesarrollista.com/Propiedades/7797466,Argentina | Cordoba | Punilla | Villa Santa Cruz Del Lago,,,Argentina | Cordoba | Punilla | Villa Santa Cruz Del Lago,-31.373268006562149,-64.484210500000003,house,for_sale_by_agent
7797393,EN VENTA DEPARTAMENTO EN BOMBAS BRASIL,for_sale,130000.00 USD,https://static.tokkobroker.com/w_pics/7797393_100816049858803240985147668597508664952278257796337954580032746613240869708658.jpg,https://www.biderbostgrupodesarrollista.com/Propiedades/7797393,Argentina | Cordoba | Cordoba Capital,,,Argentina | Cordoba | Cordoba Capital,-27.141957399999999,-48.513309100000000,apartment,for_sale_by_agent
7797354,EN VENTA DEPARTAMENTO EN VILLA CARLOS PAZ A ESTRENAR,for_sale,130000.00 USD,https://static.tokkobroker.com/w_pics/7797354_45723542291824527949825693967072340375268746110088011563972823999046086575883.jpg,https://www.biderbostgrupodesarrollista.com/Propiedades/7797354,Argentina | Cordoba | Punilla | Villa Carlos Paz | Centro,,,Argentina | Cordoba | Punilla | Villa Carlos Paz | Centro,-31.429577200000000,-64.496692299999907,apartment,for_sale_by_agent
7871504,"Departamento en venta en Venetto Villa, Villa Parque Siquiman",for_sale,130000.00 USD,https://static.tokkobroker.com/w_pics/7871504_114457517358938497171543298671423252290834644412023326633647980166582559197744.jpg,https://www.biderbostgrupodesarrollista.com/Propiedades/7871504,Argentina | Cordoba | Punilla | Villa Parque Siquiman,,,Argentina | Cordoba | Punilla | Villa Parque Siquiman,-31.3445356,-64.4751632,apartment,for_sale_by_agent
7797372,SE VENDE CASA EN CUESTA BLANCA VILLA CARLOS PAZ,for_sale,135000.00 USD,https://static.tokkobroker.com/w_pics/7797372_71184665905350184327666431056290683913375195579494553742140292714065446163963.jpg,https://www.biderbostgrupodesarrollista.com/Propiedades/7797372,Argentina | Cordoba | Alta gracia,,,Argentina | Cordoba | Alta gracia,-31.483888007167816,-64.577034999999995,house,for_sale_by_agent
7797403,EN VENTA CASA CON GRAN LOTE LAS ENSENADAS VILLA CARLOS PAZ,for_sale,135000.00 USD,https://static.tokkobroker.com/w_pics/7797403_80819746695432218188637099058876904597604006040376270435838897747448937585256.jpg,https://www.biderbostgrupodesarrollista.com/Propiedades/7797403,Argentina | Cordoba | Punilla | Villa Carlos Paz | Solares de las Ensenadas,,,Argentina | Cordoba | Punilla | Villa Carlos Paz | Solares de las Ensenadas,-31.456550799999998,-64.518209299999995,house,for_sale_by_agent
7797430,SE VENDE HERMOSA CASA EN VILLA SANTA CRUZ DEL LAGO,for_sale,135000.00 USD,https://static.tokkobroker.com/w_pics/7797430_19775537477545130613211144439943808818827202927742304953276055334254150947830.jpg,https://www.biderbostgrupodesarrollista.com/Propiedades/7797430,Argentina | Cordoba | Punilla | Villa Santa Cruz Del Lago,,,Argentina | Cordoba | Punilla | Villa Santa Cruz Del Lago,-31.369052499999998,-64.517725900000002,house,for_sale_by_agent
7797461,HERMOSA CASA EN VENTA EN SAN NICOLAS 2 SECCION,for_sale,140000.00 USD,https://static.tokkobroker.com/w_pics/7797461_44537793266367607751017103303459245089888340514875263496508272203179805930372.jpg,https://www.biderbostgrupodesarrollista.com/Propiedades/7797461,Argentina | Cordoba | Punilla | Villa Carlos Paz,,,Argentina | Cordoba | Punilla | Villa Carlos Paz,-31.433876300000001,-64.455665699999997,house,for_sale_by_agent
7797368,EN VENTA CASA EN VILLA CARLOS PAZ,for_sale,140000.00 USD,https://static.tokkobroker.com/w_pics/7797368_17369806899444167703957700698395972191363602606330925822088918428454078099921.jpg,https://www.biderbostgrupodesarrollista.com/Propiedades/7797368,Argentina | Cordoba | Punilla | Villa Carlos Paz,,,Argentina | Cordoba | Punilla | Villa Carlos Paz,-31.428143699999999,-64.495687699999905,house,for_sale_by_agent
7797424,HERMOSA CASA EN VENTA EN SAN NICOLAS 2 SECCION,for_sale,140000.00 USD,https://static.tokkobroker.com/w_pics/7797424_93791858762191042243135838775652018264801191228049642375936065710198128371923.jpg,https://www.biderbostgrupodesarrollista.com/Propiedades/7797424,Argentina | Cordoba | Punilla | Villa Carlos Paz,,,Argentina | Cordoba | Punilla | Villa Carlos Paz,-31.433567400000001,-64.459115799999906,house,for_sale_by_agent
7846976,CASA EN VENTA EN CARLOS PAZ,for_sale,140000.00 USD,https://static.tokkobroker.com/w_pics/7846976_99500280913775014681592301416784652988887772341829510520757887721440462728356.jpg,https://www.biderbostgrupodesarrollista.com/Propiedades/7846976,Argentina | Cordoba | Punilla | Villa Carlos Paz | Villa Suiza,,,Argentina | Cordoba | Punilla | Villa Carlos Paz | Villa Suiza,-31.4142627,-64.5016832,house,for_sale_by_agent
7797379,EN VENTA DEPARTAMENTO EN VILLA CARLOS PAZ,for_sale,145000.00 USD,https://static.tokkobroker.com/w_pics/7797379_6802308552954954748517579729482509567280743601429339685338740064619577124029.jpg,https://www.biderbostgrupodesarrollista.com/Propiedades/7797379,Argentina | Cordoba | Punilla | Villa Carlos Paz,,,Argentina | Cordoba | Punilla | Villa Carlos Paz,-31.412600199999999,-64.491414599999998,apartment,for_sale_by_agent
7797388,SE VENDE DEPARTAMENTO A ESTRENAR EN VILLA CARLOS PAZ,for_sale,145000.00 USD,https://static.tokkobroker.com/w_pics/7797388_47863079976960985557661166834500633953330504074361034243042374796820489320981.jpg,https://www.biderbostgrupodesarrollista.com/Propiedades/7797388,Argentina | Cordoba | Punilla | Villa Carlos Paz | José Muñoz,,,Argentina | Cordoba | Punilla | Villa Carlos Paz | José Muñoz,-31.417457100000000,-64.487106400000001,apartment,for_sale_by_agent
7797406,SE VENDE DUPLEX EN VILLA CARLOS PAZ CERCANO A COSTANERA,for_sale,150000.00 USD,https://static.tokkobroker.com/w_pics/7797406_3304190328242916031753238737657449285681883567643954510943840717227141432200.jpg,https://www.biderbostgrupodesarrollista.com/Propiedades/7797406,Argentina | Cordoba | Punilla | Villa Carlos Paz | Sol y Lago,,,Argentina | Cordoba | Punilla | Villa Carlos Paz | Sol y Lago,-31.406583000000001,-64.484474599999998,apartment,for_sale_by_agent
7797370,SE VENDE CASA EN VILLA LAGO AZUL CARLOS PAZ,for_sale,150000.00 USD,https://static.tokkobroker.com/w_pics/7797370_72761717369652640595571642566368380836408350619365448387291735627646010535812.jpg,https://www.biderbostgrupodesarrollista.com/Propiedades/7797370,Argentina | Cordoba | Punilla | Villa Santa Cruz Del Lago,,,Argentina | Cordoba | Punilla | Villa Santa Cruz Del Lago,-31.374506733865960,-64.482254999999994,house,for_sale_by_agent
7797355,DEPARTAMENTO EN VENTA EN CARLOS PAZ - EDIFICIO PASEO NAMBA,for_sale,150000.00 USD,https://static.tokkobroker.com/w_pics/7797355_84750641616624355296686249149483217275460516572905794442409407635264273521246.jpg,https://www.biderbostgrupodesarrollista.com/Propiedades/7797355,Argentina | Cordoba | Punilla | Villa Carlos Paz,,,Argentina | Cordoba | Punilla | Villa Carlos Paz,-31.419080699999998,-64.490859700000001,apartment,for_sale_by_agent
7797458,SE VENDE CASA CENTRICA EN VILLA CARLOS PAZ,for_sale,150000.00 USD,https://static.tokkobroker.com/w_pics/7797458_50188312312525225166513549444859827091778134110092185580092902720248939129223.jpg,https://www.biderbostgrupodesarrollista.com/Propiedades/7797458,Argentina | Cordoba | Punilla | Villa Carlos Paz,,,Argentina | Cordoba | Punilla | Villa Carlos Paz,-31.415203000000001,-64.502179600000005,house,for_sale_by_agent
7797445,"SE VENDE PROPIEDAD DE DOS DORMITORIOS MAS DEPARTAMENTO Y LOCAL EN BARRIO JOSE MUÑOZ,",for_sale,155000.00 USD,https://static.tokkobroker.com/w_pics/7797445_18078884893499437626441443638950885070824978184501780312593253819973696382231.jpg,https://www.biderbostgrupodesarrollista.com/Propiedades/7797445,Argentina | Cordoba | Punilla | Villa Carlos Paz | José Muñoz,,,Argentina | Cordoba | Punilla | Villa Carlos Paz | José Muñoz,-31.425822099999990,-64.492220000000003,house,for_sale_by_agent
7797441,EN VENTA CASA EN VILLA CARLOS PAZ,for_sale,160000.00 USD,https://static.tokkobroker.com/w_pics/7797441_29213652097315740550974067011133613333624323379834522531538013406182029182488.jpg,https://www.biderbostgrupodesarrollista.com/Propiedades/7797441,Argentina | Cordoba | Punilla | Villa Carlos Paz,,,Argentina | Cordoba | Punilla | Villa Carlos Paz,-31.458573093206304,-64.505583999999998,house,for_sale_by_agent
7797418,SE VENDE DEPARTAMENTO DOS DORMITORIOS EN LOS OLIVOS IV,for_sale,170000.00 USD,https://static.tokkobroker.com/w_pics/7797418_78074076187217076976891375619168955244937849382568053292508004277527863158607.jpg,https://www.biderbostgrupodesarrollista.com/Propiedades/7797418,Argentina | Cordoba | Punilla | Villa Carlos Paz,,,Argentina | Cordoba | Punilla | Villa Carlos Paz,-31.420928099999990,-64.495440999999999,apartment,for_sale_by_agent
7797375,DEPARTAMENTO CÉNTRICO EN VILLA CARLOS PAZ DE CATEGORÍA EN VENTA,for_sale,174000.00 USD,https://static.tokkobroker.com/w_pics/7797375_57488510768887301237344947220227303869708520079665342675588976739426464062220.jpg,https://www.biderbostgrupodesarrollista.com/Propiedades/7797375,Argentina | Cordoba | Punilla | Villa Carlos Paz | Centro,,,Argentina | Cordoba | Punilla | Villa Carlos Paz | Centro,-31.422460999999998,-64.494777700000000,apartment,for_sale_by_agent
7867397,Departamento en venta en Villa Carlos Paz,for_sale,175000.00 USD,https://static.tokkobroker.com/w_pics/7867397_113422772729698510473039898851302979263000187282411302927589580858951778385461.jpg,https://www.biderbostgrupodesarrollista.com/Propiedades/7867397,Argentina | Cordoba | Punilla | Villa Carlos Paz,,,Argentina | Cordoba | Punilla | Villa Carlos Paz,-31.4221425,-64.4931071,apartment,for_sale_by_agent
7797362,EN VENTA COMPLEJO EN VILLA CARLOS PAZ,for_sale,179000.00 USD,https://static.tokkobroker.com/w_pics/7797362_35082431530220746146088126199744703532422568231407046404945930030396027660389.jpg,https://www.biderbostgrupodesarrollista.com/Propiedades/7797362,Argentina | Cordoba | Punilla | Villa Carlos Paz | Solares de las Ensenadas,,,Argentina | Cordoba | Punilla | Villa Carlos Paz | Solares de las Ensenadas,-31.446033118251154,-64.516643999999999,house,for_sale_by_agent
7797467,CASA EN VENTA EN BARRIO JOSE MUÑOZ VILLA CARLOS PAZ,for_sale,180000.00 USD,https://static.tokkobroker.com/w_pics/7797467_30375848058488744191236400321147157888664642148593912098681572866346353641560.jpg,https://www.biderbostgrupodesarrollista.com/Propiedades/7797467,Argentina | Cordoba | Punilla | Villa Carlos Paz | José Muñoz,,,Argentina | Cordoba | Punilla | Villa Carlos Paz | José Muñoz,-31.420782800000001,-64.499214100000003,house,for_sale_by_agent
7797492,LOTE EN VENTA EN B° VILLA DEL LAGO - 4652 M2 - OPORTUNIDAD,for_sale,180000.00 USD,https://static.tokkobroker.com/w_pics/7797492_87404459730762843561604599310320403083194470160401328362482492008459195179250.jpg,https://www.biderbostgrupodesarrollista.com/Propiedades/7797492,Argentina | Cordoba | Punilla | Villa Carlos Paz,,,Argentina | Cordoba | Punilla | Villa Carlos Paz,-31.403843265111127,-64.498998000000000,land,for_sale_by_agent
7797364,EN VENTA CASA EN LAS ENSENADAS VILLA CARLOS PAZ,for_sale,180000.00 USD,https://static.tokkobroker.com/w_pics/7797364_4617685762523180269445185706899919536412812198039963993583041197547274102023.jpg,https://www.biderbostgrupodesarrollista.com/Propiedades/7797364,Argentina | Cordoba | Punilla | Villa Carlos Paz | Solares de las Ensenadas,,,Argentina | Cordoba | Punilla | Villa Carlos Paz | Solares de las Ensenadas,-31.448939700000000,-64.510338599999997,house,for_sale_by_agent
7797408,"IMPORTANTE TRIPLEX EN VENTA EN SANTA RITA, VILLA CARLOS PAZ",for_sale,185000.00 USD,https://static.tokkobroker.com/w_pics/7797408_114221559827342928505388074439899538258684915105138509838670381109521083631543.jpg,https://www.biderbostgrupodesarrollista.com/Propiedades/7797408,Argentina | Cordoba | Punilla | Villa Carlos Paz,,,Argentina | Cordoba | Punilla | Villa Carlos Paz,-31.403385000000000,-64.478251000000000,apartment,for_sale_by_agent
7797410,SE VENDE DEPARTAMENTO EN VILLA CARLOS PAZ FLIA DERQUI,for_sale,190000.00 USD,https://static.tokkobroker.com/w_pics/7797410_65156220330719807437630664026147042340850168543175439361584317962105345952113.jpg,https://www.biderbostgrupodesarrollista.com/Propiedades/7797410,Argentina | Cordoba | Punilla | Villa Carlos Paz,,,Argentina | Cordoba | Punilla | Villa Carlos Paz,-31.412320900000000,-64.494175999999995,apartment,for_sale_by_agent
7828907,DEPARTAMENTO EN VENTA CENTRO DE CARLOS PAZ 2 DORMITRIOS AMOBLADO,for_sale,190000.00 USD,https://static.tokkobroker.com/w_pics/7828907_7424761520570379828200964416890458382099336560296922403355410410967592127.jpg,https://www.biderbostgrupodesarrollista.com/Propiedades/7828907,Argentina | Cordoba | Punilla | Villa Carlos Paz | Centro,,,Argentina | Cordoba | Punilla | Villa Carlos Paz | Centro,-31.4221425,-64.4931071,apartment,for_sale_by_agent
7797382,SE VENDE DEPARTAMENTO EN VILLA CARLOS PAZ,for_sale,190000.00 USD,https://static.tokkobroker.com/w_pics/7797382_12145456658319518204588799701266043657289709665923886830051433423939690574611.jpg,https://www.biderbostgrupodesarrollista.com/Propiedades/7797382,Argentina | Cordoba | Punilla | Villa Carlos Paz | José Muñoz,,,Argentina | Cordoba | Punilla | Villa Carlos Paz | José Muñoz,-31.420782800000001,-64.499214100000003,apartment,for_sale_by_agent
7797377,SE VENDE DEPARTAMENTO EN VILLA CARLOS PAZ,for_sale,195000.00 USD,https://static.tokkobroker.com/w_pics/7797377_65442112592536157073303466283615126808418542234595848420716231729900618533743.jpg,https://www.biderbostgrupodesarrollista.com/Propiedades/7797377,Argentina | Cordoba | Punilla | Villa Carlos Paz,,,Argentina | Cordoba | Punilla | Villa Carlos Paz,-31.403330700000001,-64.478260099999999,apartment,for_sale_by_agent
7797381,DEPARTAMENTO EN VENTA EN CARLOS PAZ - EDIFICIO STEFANO 5,for_sale,195000.00 USD,https://static.tokkobroker.com/w_pics/7797381_2481111276379544754207268198789337080547015029309712243757584696517126419518.jpg,https://www.biderbostgrupodesarrollista.com/Propiedades/7797381,Argentina | Cordoba | Punilla | Villa Carlos Paz,,,Argentina | Cordoba | Punilla | Villa Carlos Paz,-31.417609399999999,-64.498584299999905,apartment,for_sale_by_agent
7797346,EN VENTA CASA EN TEJAS 4 VILLA CARLOS PAZ,for_sale,195000.00 USD,https://static.tokkobroker.com/w_pics/7797346_39716100691391722667221233656996000463874126646305913941171426711280184606013.jpg,https://www.biderbostgrupodesarrollista.com/Propiedades/7797346,Argentina | Cordoba | Santa Maria | Malagueño | Tejas 4,,,Argentina | Cordoba | Santa Maria | Malagueño | Tejas 4,-31.447027899999991,-64.435993999999993,house,for_sale_by_agent
7797359,SE VENDE IMPORTANTE CASA VILLA SUIZA CARLOS PAZ,for_sale,195000.00 USD,https://static.tokkobroker.com/w_pics/7797359_81079140021874948351762749883822843979360019182336879715679402989489188561728.jpg,https://www.biderbostgrupodesarrollista.com/Propiedades/7797359,Argentina | Cordoba | Punilla | Villa Carlos Paz | Villa Suiza,,,Argentina | Cordoba | Punilla | Villa Carlos Paz | Villa Suiza,-31.413977899999999,-64.501919200000003,house,for_sale_by_agent
7797358,CASA EN VENTA EN CARLOS PAZ CON HERMOSO JARDIN,for_sale,195000.00 USD,https://static.tokkobroker.com/w_pics/7797358_93304470938584929768313403382113763404769191693933373207040995911235927906769.jpg,https://www.biderbostgrupodesarrollista.com/Propiedades/7797358,Argentina | Cordoba | Punilla | Villa Carlos Paz | La Quinta,,,Argentina | Cordoba | Punilla | Villa Carlos Paz | La Quinta,-31.422222200000000,-64.522237000000004,house,for_sale_by_agent
7797476,SE VENDE CASA PH EN SANTA RITA VILLA CARLOS PAZ,for_sale,200000.00 USD,https://static.tokkobroker.com/w_pics/7797476_95053459043001602233352774835008068225624325650938281117138617464591023301488.jpg,https://www.biderbostgrupodesarrollista.com/Propiedades/7797476,Argentina | Cordoba | Punilla | Villa Carlos Paz,,,Argentina | Cordoba | Punilla | Villa Carlos Paz,-31.409846552898002,-64.481549000000001,house,for_sale_by_agent
7797479,IMPORTANTE LOCAL EN VENTA EN GALERÍA ACUARIO CARLOS PAZ,for_sale,200000.00 USD,https://static.tokkobroker.com/w_pics/7797479_104547705926453716410008606337762679047140081110992753319605479987299768854394.jpg,https://www.biderbostgrupodesarrollista.com/Propiedades/7797479,Argentina | Cordoba | Punilla | Villa Carlos Paz,,,Argentina | Cordoba | Punilla | Villa Carlos Paz,-31.420565499999998,-64.500758099999998,other,for_sale_by_agent
7797347,EN VENTA CASA EN BECCIU VILLA CARLOS PAZ,for_sale,210000.00 USD,https://static.tokkobroker.com/w_pics/7797347_36499035346235617838552018611495672493574433128686405726844527161726268710038.jpg,https://www.biderbostgrupodesarrollista.com/Propiedades/7797347,Argentina | Cordoba | Punilla | Villa Carlos Paz,,,Argentina | Cordoba | Punilla | Villa Carlos Paz,-31.410973099999999,-64.506031500000005,house,for_sale_by_agent
7797425,SE VENDE DEPARTAMENTO A ESTRENAR EN VILLA CARLOS PAZ,for_sale,220000.00 USD,https://static.tokkobroker.com/w_pics/7797425_78034141358932232172540689912775881404025405305218868943594526367799791291548.jpg,https://www.biderbostgrupodesarrollista.com/Propiedades/7797425,Argentina | Cordoba | Punilla | Villa Carlos Paz | José Muñoz,,,Argentina | Cordoba | Punilla | Villa Carlos Paz | José Muñoz,-31.417457100000000,-64.487106400000001,apartment,for_sale_by_agent
7797407,SE VENDE DEPARTAMENTO EN VILLA CARLOS PAZ,for_sale,220000.00 USD,https://static.tokkobroker.com/w_pics/7797407_63923405905248666441020363934133995050295575759523989588271996174865659084950.jpg,https://www.biderbostgrupodesarrollista.com/Propiedades/7797407,Argentina | Cordoba | Punilla | Villa Carlos Paz | José Muñoz,,,Argentina | Cordoba | Punilla | Villa Carlos Paz | José Muñoz,-31.417457100000000,-64.487106400000001,apartment,for_sale_by_agent
7848934,CASA EN VENTA EN NEUVO MALAGUEÑO,for_sale,220000.00 USD,https://static.tokkobroker.com/w_pics/7848934_62723915988626529594458400697962440351043707684404124549337804373786995614047.jpg,https://www.biderbostgrupodesarrollista.com/Propiedades/7848934,Argentina | Cordoba | Punilla | Malagueño,,,Argentina | Cordoba | Punilla | Malagueño,-31.4429123,-64.3588166,house,for_sale_by_agent
7797423,SE VENDE DEPARTAMENTO A ESTRENAR EN VILLA CARLOS PAZ,for_sale,220000.00 USD,https://static.tokkobroker.com/w_pics/7797423_44832205135807484858910315899387375417787181968696971210079240010227419347435.jpg,https://www.biderbostgrupodesarrollista.com/Propiedades/7797423,Argentina | Cordoba | Punilla | Villa Carlos Paz | José Muñoz,,,Argentina | Cordoba | Punilla | Villa Carlos Paz | José Muñoz,-31.417457100000000,-64.487106400000001,apartment,for_sale_by_agent
7797464,"SE VENDE IMPORTANTE CASA EN B BECCIU, EXCELENTES VISTAS",for_sale,230000.00 USD,https://static.tokkobroker.com/w_pics/7797464_32149924031868115522574372592036236777712357788838932662751731628227123841845.jpg,https://www.biderbostgrupodesarrollista.com/Propiedades/7797464,Argentina | Cordoba | Punilla | Villa Carlos Paz,,,Argentina | Cordoba | Punilla | Villa Carlos Paz,-31.408668402079179,-64.509148999999993,house,for_sale_by_agent
7797373,SE VENDE CASA EN LA CUESTA VILLA CARLOS PAZ,for_sale,230000.00 USD,https://static.tokkobroker.com/w_pics/7797373_7962789545920891549326835089520131065836170864919913180189885485905385744326.jpg,https://www.biderbostgrupodesarrollista.com/Propiedades/7797373,Argentina | Cordoba | Punilla | Villa Carlos Paz | La Cuesta,,,Argentina | Cordoba | Punilla | Villa Carlos Paz | La Cuesta,-31.408951499999989,-64.479147999999995,house,for_sale_by_agent
7797427,SE VENDE IMPECABLE PROPIEDAD EN COSTA AZUL NORTE,for_sale,230000.00 USD,https://static.tokkobroker.com/w_pics/7797427_58307182411402669123477433607308555521690828508408085347137944998054626206819.jpg,https://www.biderbostgrupodesarrollista.com/Propiedades/7797427,Argentina | Cordoba | Punilla | Villa Carlos Paz,,,Argentina | Cordoba | Punilla | Villa Carlos Paz,-31.395836599999999,-64.467806199999998,house,for_sale_by_agent
7797401,DEPARTAMENTO EN VENTA EN CARLOS PAZ - EDIFICIO STEFANO 5,for_sale,235000.00 USD,https://static.tokkobroker.com/w_pics/7797401_57032851903788286063088108953585442808983034306857729237808276865419377826782.jpg,https://www.biderbostgrupodesarrollista.com/Propiedades/7797401,Argentina | Cordoba | Punilla | Villa Carlos Paz,,,Argentina | Cordoba | Punilla | Villa Carlos Paz,-31.417609399999999,-64.498584299999905,apartment,for_sale_by_agent
7797420,SE VENDE DEPARTAMENTO EN VILLA CARLOS PAZ FLIA DERQUI,for_sale,240000.00 USD,https://static.tokkobroker.com/w_pics/7797420_35851711132299642146758080831217037893535669065029037288849977566787932161922.jpg,https://www.biderbostgrupodesarrollista.com/Propiedades/7797420,Argentina | Cordoba | Punilla | Villa Carlos Paz,,,Argentina | Cordoba | Punilla | Villa Carlos Paz,-31.412320900000000,-64.494175999999995,apartment,for_sale_by_agent
7839137,CASA MODERNA EN VENTA EN LAGO AZUL,for_sale,240000.00 USD,https://static.tokkobroker.com/w_pics/7839137_46339231027967694790701789008167543405002986104166540380972817733002189276509.jpg,https://www.biderbostgrupodesarrollista.com/Propiedades/7839137,Argentina | Cordoba | Punilla | Villa Parque Siquiman,,,Argentina | Cordoba | Punilla | Villa Parque Siquiman,-31.4071517,-64.5031991,house,for_sale_by_agent
7797454,SE VENDE CASA CON EXCELENTES VISTAS EN B° PRIVADO VENTURIA,for_sale,250000.00 USD,https://static.tokkobroker.com/w_pics/7797454_78324650967731431740780368490331978923759162279873963402453688573163410683981.jpg,https://www.biderbostgrupodesarrollista.com/Propiedades/7797454,Argentina | Cordoba | Punilla | Villa Carlos Paz,,,Argentina | Cordoba | Punilla | Villa Carlos Paz,-31.430887670725230,-64.532679700000002,house,for_sale_by_agent
7797360,SE VENDE CASA IMPECABLE EN BARRIO JOSE MUÑOZ CARLOS PAZ,for_sale,250000.00 USD,https://static.tokkobroker.com/w_pics/7797360_113319861768480706229342762770963998412224822426471207614707522065444065464644.jpg,https://www.biderbostgrupodesarrollista.com/Propiedades/7797360,Argentina | Cordoba | Punilla | Villa Carlos Paz | José Muñoz,,,Argentina | Cordoba | Punilla | Villa Carlos Paz | José Muñoz,-31.416938500000000,-64.487164300000003,house,for_sale_by_agent
7797378,SE VENDE DEPARTAMENTO EN VILLA CARLOS PAZ FLIA DERQUI,for_sale,250000.00 USD,https://static.tokkobroker.com/w_pics/7797378_75597639768279242897810548034609229287417969600742318722204723229348343624146.jpg,https://www.biderbostgrupodesarrollista.com/Propiedades/7797378,Argentina | Cordoba | Punilla | Villa Carlos Paz,,,Argentina | Cordoba | Punilla | Villa Carlos Paz,-31.412320900000000,-64.494175999999995,apartment,for_sale_by_agent
7857152,CASA EN VENTA EN CAÑITAS CON PILETA,for_sale,259000.00 USD,https://static.tokkobroker.com/w_pics/7857152_111482470579746280868901826115183348646846052554404172050644410050890153335759.jpg,https://www.biderbostgrupodesarrollista.com/Propiedades/7857152,Argentina | Cordoba | Punilla | Malagueño,,,Argentina | Cordoba | Punilla | Malagueño,-31.4202675,-64.6214281,house,for_sale_by_agent
7797361,EN VENTA CASA COSTA AZUL VILLA CARLOS PAZ,for_sale,260000.00 USD,https://static.tokkobroker.com/w_pics/7797361_26152376626121450085889653298782512385530792698574631689380877821245009230988.jpg,https://www.biderbostgrupodesarrollista.com/Propiedades/7797361,Argentina | Cordoba | Punilla | Villa Carlos Paz,,,Argentina | Cordoba | Punilla | Villa Carlos Paz,-31.393066600000000,-64.465918799999997,house,for_sale_by_agent
7797385,DEPARTAMENTO EN VENTA SOBRE COSTANERA DE CARLOS PAZ,for_sale,265000.00 USD,https://static.tokkobroker.com/w_pics/7797385_80943761431418706248662122903304860253821571644907532558873508225491328725370.jpg,https://www.biderbostgrupodesarrollista.com/Propiedades/7797385,Argentina | Cordoba | Punilla | Villa Carlos Paz,,,Argentina | Cordoba | Punilla | Villa Carlos Paz,-31.408450399999999,-64.492646300000004,apartment,for_sale_by_agent
7797356,EN VENTA CASA A ESTRENAR VILLA CARLOS PAZ SANTA RITA,for_sale,265000.00 USD,https://static.tokkobroker.com/w_pics/7797356_55115433534577677950781660908855971400121284737403080080469142272048353760154.jpg,https://www.biderbostgrupodesarrollista.com/Propiedades/7797356,Argentina | Cordoba | Punilla | Villa Carlos Paz,,,Argentina | Cordoba | Punilla | Villa Carlos Paz,-31.402315900000001,-64.479454700000005,house,for_sale_by_agent
7797367,SE VENDE CASA EN LA CUESTA VILLA CARLOS PAZ,for_sale,268000.00 USD,https://static.tokkobroker.com/w_pics/7797367_18061984222154972443889830624301888889206811217152373820108353587304247353430.jpg,https://www.biderbostgrupodesarrollista.com/Propiedades/7797367,Argentina | Cordoba | Punilla | Villa Carlos Paz | La Cuesta,,,Argentina | Cordoba | Punilla | Villa Carlos Paz | La Cuesta,-31.411537883186106,-64.477457000000001,house,for_sale_by_agent
7797481,SE VENDE CASA VILLA DEL LAGO EN VILLA CARLOS PAZ,for_sale,280000.00 USD,https://static.tokkobroker.com/w_pics/7797481_5626972651354807717412398398450612108806066124598567455615876112061789338108.jpg,https://www.biderbostgrupodesarrollista.com/Propiedades/7797481,Argentina | Cordoba | Punilla | Villa Carlos Paz | Villa del Lago,,,Argentina | Cordoba | Punilla | Villa Carlos Paz | Villa del Lago,-31.396385699999999,-64.498605100000006,house,for_sale_by_agent
7797516,SE VENDE LOTE SOL Y RIO EN VILLA CARLOS PAZ,for_sale,280000.00 USD,https://static.tokkobroker.com/w_pics/7797516_107535559425912736732291096786162042885799233336760878933201571461776691565157.jpg,https://www.biderbostgrupodesarrollista.com/Propiedades/7797516,Argentina | Cordoba | Punilla | Villa Carlos Paz,,,Argentina | Cordoba | Punilla | Villa Carlos Paz,-31.458733599999998,-64.509863799999905,land,for_sale_by_agent
7797463,"Casa en venta en Costa Azul Sur, Villa Carlos Paz.",for_sale,300000.00 USD,https://static.tokkobroker.com/w_pics/7797463_106863647326725096424923122152974555004886154563737874780374591938277186602161.jpg,https://www.biderbostgrupodesarrollista.com/Propiedades/7797463,Argentina | Cordoba | Punilla | Villa Carlos Paz,,,Argentina | Cordoba | Punilla | Villa Carlos Paz,-31.405544676051700,-64.473811999999995,house,for_sale_by_agent
7797351,EN VENTA CASA EN SANTA RITA DEL LAGO VILLA CARLOS PAZ,for_sale,310000.00 USD,https://static.tokkobroker.com/w_pics/7797351_81891256786700894731550956473818492645442183659832310240943297087106938464503.jpg,https://www.biderbostgrupodesarrollista.com/Propiedades/7797351,Argentina | Cordoba | Punilla | Villa Carlos Paz,,,Argentina | Cordoba | Punilla | Villa Carlos Paz,-31.404028300000000,-64.474223299999906,house,for_sale_by_agent
7797417,SE VENDE DEPARTAMENTO EN VILLA CARLOS PAZ FLIA DERQUI,for_sale,320000.00 USD,https://static.tokkobroker.com/w_pics/7797417_15209027801807358734960648963942582879168179544540828539662155080927115674948.jpg,https://www.biderbostgrupodesarrollista.com/Propiedades/7797417,Argentina | Cordoba | Punilla | Villa Carlos Paz,,,Argentina | Cordoba | Punilla | Villa Carlos Paz,-31.412320900000000,-64.494175999999995,apartment,for_sale_by_agent
7797365,SE VENDE CASA EN COSTA AZUL VILLA CARLOS PAZ,for_sale,320000.00 USD,https://static.tokkobroker.com/w_pics/7797365_63462321817116641110554322134792978379445520559165814793690987068194120665581.jpg,https://www.biderbostgrupodesarrollista.com/Propiedades/7797365,Argentina | Cordoba | Punilla | Villa Carlos Paz,,,Argentina | Cordoba | Punilla | Villa Carlos Paz,-31.392974699999999,-64.464558199999999,house,for_sale_by_agent
7834150,CASA EN VENTA  3 DORMITORIOS EN BECCIU,for_sale,325000.00 USD,https://static.tokkobroker.com/w_pics/7834150_99821543475322914361235057516468911666243061913302130194583961014484152675370.jpg,https://www.biderbostgrupodesarrollista.com/Propiedades/7834150,Argentina | Cordoba | Punilla | Villa Carlos Paz | Centro,,,Argentina | Cordoba | Punilla | Villa Carlos Paz | Centro,-31.4099589,-64.5074912,house,for_sale_by_agent
7797395,SE VENDE COMPLEJO DE CABAÑAS SAN ANTONIO CARLOS PAZ,for_sale,340000.00 USD,https://static.tokkobroker.com/w_pics/7797395_103126782374210960005265752196517713378774008691142487017749657319419656752316.jpg,https://www.biderbostgrupodesarrollista.com/Propiedades/7797395,Argentina | Cordoba | Cordoba Capital | San Antonio,,,Argentina | Cordoba | Cordoba Capital | San Antonio,-31.467631451454483,-64.515990999999999,apartment,for_sale_by_agent
7797470,SE VENDE HERMOSA PROPIEDAD EN B° BECCIU EXCELENTES VISTAS,for_sale,375000.00 USD,https://static.tokkobroker.com/w_pics/7797470_72832822611877342357606018552921507992873680849474122814590763278480910776651.jpg,https://www.biderbostgrupodesarrollista.com/Propiedades/7797470,Argentina | Cordoba | Punilla | Villa Carlos Paz,,,Argentina | Cordoba | Punilla | Villa Carlos Paz,-31.412915699999999,-64.504949899999999,house,for_sale_by_agent
7797352,CASA EN VENTA EN CARLOS PAZ,for_sale,400000.00 USD,https://static.tokkobroker.com/w_pics/7797352_93693616739809895863652135344536072122231846525796280292820365714205538686401.jpg,https://www.biderbostgrupodesarrollista.com/Propiedades/7797352,Argentina | Cordoba | Punilla | Villa Carlos Paz | José Muñoz,,,Argentina | Cordoba | Punilla | Villa Carlos Paz | José Muñoz,-31.414640699999999,-64.488135099999993,house,for_sale_by_agent
7797374,SE VENDE CASA Y TRES DEPARTAMENTOS EN BARRIO LAS VERTIENTES VILLA CARLOS PAZ,for_sale,420000.00 USD,https://static.tokkobroker.com/w_pics/7797374_24765381843694981343435149260096227118978747436857981675871273288674237057692.jpg,https://www.biderbostgrupodesarrollista.com/Propiedades/7797374,Argentina | Cordoba | Punilla | Villa Carlos Paz | La Cuesta,,,Argentina | Cordoba | Punilla | Villa Carlos Paz | La Cuesta,-31.409750699573940,-64.476188199999995,apartment,for_sale_by_agent
7797434,"IMPORTANTE CASA EN VENTA EN FALDA DEL CARMEN,FRENTE COUNTRY ESTACION DEL CARMEN.",for_sale,420000.00 USD,https://static.tokkobroker.com/w_pics/7797434_42649753814076417406947918627648877633419620114191144934180191501344550017220.jpg,https://www.biderbostgrupodesarrollista.com/Propiedades/7797434,Argentina | Cordoba | Santa Maria | Malagueño | Las Cañitas Barrio Privado,,,Argentina | Cordoba | Santa Maria | Malagueño | Las Cañitas Barrio Privado,-31.489972466283173,-64.459325000000006,house,for_sale_by_agent
7797478,"IMPORTANTE CASA EN VENTA EN FALDA DEL CARMEN,FRENTE COUNTRY ESTACION DEL CARMEN.",for_sale,420000.00 USD,https://static.tokkobroker.com/w_pics/7797478_2314062151919058456178727023882034876050051740726515102379771385367594579439.jpg,https://www.biderbostgrupodesarrollista.com/Propiedades/7797478,Argentina | Cordoba | Punilla | Villa Carlos Paz,,,Argentina | Cordoba | Punilla | Villa Carlos Paz,-31.490394303315206,-64.453166999999993,house,for_sale_by_agent
7797460,SE VENDE CASA EN BARRIO LAS VERTIENTES VILLA CARLOS PAZ,for_sale,420000.00 USD,https://static.tokkobroker.com/w_pics/7797460_18141405489373178836242595462916113966404568222384349117512857926538559810270.jpg,https://www.biderbostgrupodesarrollista.com/Propiedades/7797460,Argentina | Cordoba | Punilla | Villa Carlos Paz | La Cuesta,,,Argentina | Cordoba | Punilla | Villa Carlos Paz | La Cuesta,-31.409750699573940,-64.476188199999995,house,for_sale_by_agent
7797490,EN VENTA HECTAREAS EN CABALANGO VILLA CARLOS PAZ,for_sale,430000.00 USD,https://static.tokkobroker.com/w_pics/7797490_115523220931526262512194257020872388103119165376060509368360022496905746563355.jpg,https://www.biderbostgrupodesarrollista.com/Propiedades/7797490,Argentina | Cordoba | Punilla | Malagueño,,,Argentina | Cordoba | Punilla | Malagueño,-31.381463900295358,-64.540385000000000,land,for_sale_by_agent
7797428,DEPARTAMENTO DE CATEGORÍA EN VENTA EN EDIFICIO MELOS A POCOS METROS DEL CENTRO DE CARLOS PAZ,for_sale,450000.00 USD,https://static.tokkobroker.com/w_pics/7797428_56374155298074151869708893819080661413158780147784537248619065233452193447860.jpg,https://www.biderbostgrupodesarrollista.com/Propiedades/7797428,Argentina | Cordoba | Punilla | Villa Carlos Paz,,,Argentina | Cordoba | Punilla | Villa Carlos Paz,-31.420757800000000,-64.495499899999998,apartment,for_sale_by_agent
7797475,"SE VENDE HECTAREAS, FRACCION, CASONA EN SAN ANTONIO DE ARREDONDO",for_sale,450000.00 USD,https://static.tokkobroker.com/w_pics/7797475_7362807882540238944822303949636875252841644538107640905755703923792109077399.jpg,https://www.biderbostgrupodesarrollista.com/Propiedades/7797475,Argentina | Cordoba | Punilla | Villa Carlos Paz,,,Argentina | Cordoba | Punilla | Villa Carlos Paz,-31.468633636795928,-64.515861799999996,house,for_sale_by_agent
7797472,PROPIEDAD CON FONDO AL LAGO SAN ROQUE,for_sale,500000.00 USD,https://static.tokkobroker.com/w_pics/7797472_3666000121165512006637694593336690192676129392182779928605828988520211405461.jpg,https://www.biderbostgrupodesarrollista.com/Propiedades/7797472,Argentina | Cordoba | Punilla | Villa Santa Cruz Del Lago,,,Argentina | Cordoba | Punilla | Villa Santa Cruz Del Lago,-31.377701445333713,-64.483565999999996,house,for_sale_by_agent
7797465,SE VENDE IMPORTANTE CASA EN BARRIO CAUSANA,for_sale,550000.00 USD,https://static.tokkobroker.com/w_pics/7797465_80974957214611202109831883565793063579459562015587811955812424427129198043238.jpg,https://www.biderbostgrupodesarrollista.com/Propiedades/7797465,Argentina | Cordoba | Santa Maria | Malagueño | Las Cañitas Barrio Privado,,,Argentina | Cordoba | Santa Maria | Malagueño | Las Cañitas Barrio Privado,-31.463286599999999,-64.406944100000004,house,for_sale_by_agent
7797400,SE VENDE IMPORTANTE CASA EN BECCIU,for_sale,600000.00 USD,https://static.tokkobroker.com/w_pics/7797400_38361482038301898028387152014845161732545339394950356517377504394006356798327.jpg,https://www.biderbostgrupodesarrollista.com/Propiedades/7797400,Argentina | Cordoba | Punilla | Villa Carlos Paz,,,Argentina | Cordoba | Punilla | Villa Carlos Paz,-31.412389000000001,-64.504237799999998,house,for_sale_by_agent
7797371,EN VENTA COMPLEJO CABAÑAS EN SAN ANTONIO DE ARREDONDO,for_sale,700000.00 USD,https://static.tokkobroker.com/w_pics/7797371_109416550693953225095972746304620560758595248858365980199538850390567384447290.jpg,https://www.biderbostgrupodesarrollista.com/Propiedades/7797371,Argentina | Cordoba | Cordoba Capital | San Antonio,,,Argentina | Cordoba | Cordoba Capital | San Antonio,-31.469312643938440,-64.516839000000004,other,for_sale_by_agent
7797442,"SE VENDE HECTAREAS, FRACCION, CASONA EN SAN ANTONIO DE ARREDONDO",for_sale,900000.00 USD,https://static.tokkobroker.com/w_pics/7797442_296718440685378527338793940482066003452383829037864030497802013982331860651.jpg,https://www.biderbostgrupodesarrollista.com/Propiedades/7797442,Argentina | Cordoba | Punilla | Villa Carlos Paz,,,Argentina | Cordoba | Punilla | Villa Carlos Paz,-31.468633636795928,-64.515861799999996,land,for_sale_by_agent
7797366,EN VENTA COMPLEJO TURISTICO EN VILLA CARLOS PAZ,for_sale,950000.00 USD,https://static.tokkobroker.com/w_pics/7797366_73421985770902393932320038593941512981349812113046594741485544255001739558179.jpg,https://www.biderbostgrupodesarrollista.com/Propiedades/7797366,Argentina | Cordoba | Punilla | Villa Carlos Paz,,,Argentina | Cordoba | Punilla | Villa Carlos Paz,-31.398156199999998,-64.500127199999994,other,for_sale_by_agent
